[
  {
    "id": "friedenscamp",
    "name": "Friedenscamp",
    "address": "K9 zwischen 66879 Steinwenden und 66879 Kottweiler-Schwanden",
    "lat": 49.468336,
    "lng": 7.525594,
    "translationKey": "FRIEDENSCAMP",
    "readMoreLink": "/info/friedenscamp"
  },
  {
    "id": "svotterberg",
    "name": "SV Otterberg",
    "address": "Am Stadion 1, 67697 Otterberg",
    "lat": 49.509176,
    "lng": 7.780170,
    "translationKey": "SV_OTTERBERG",
    "readMoreLink": "/info/friedensfussballturnier"
  },
  {
    "id": "apostelkirche",
    "name": "Apostelkirche",
    "address": "Pariser Str. 22, 67659 Kaiserslautern",
    "lat": 49.444297,
    "lng": 7.761579,
    "translationKey": "APOSTELKIRCHE",
    "readMoreLink": "/info/apostelkirche"
  },
  {
    "id": "auftaktkundgebung",
    "name": "Auftaktkundgebung",
    "address": "Haus des Bürgers (Prometheus-Platz), Am neuen Markt 4, 66977 Ramstein-Miesenbach",
    "lat": 49.447888,
    "lng": 7.555465,
    "translationKey": "AUFTAKTKUNDGEBUNG",
    "readMoreLink": "/events/auftaktkundgebung"
  },
  {
    "id": "abschlusskundgebung",
    "name": "Abschlusskundgebung",
    "address": "",
    "lat": 49.438392,
    "lng": 7.568276,
    "translationKey": "ABSCHLUSSKUNDGEBUNG",
    "readMoreLink": "/events/abschlusskundgebung"
  },
  {
    "id": "kaiserslautern",
    "name": "Kaiserslautern, Stadtmitte",
    "address": "Guimaráes-Platz 1, 67655 Kaiserslautern",
    "lat": 49.436497,
    "lng": 7.768339,
    "translationKey": "KAISERSLAUTERN",
    "readMoreLink": "/events/abschlusskundgebung"
  },
  {
    "id": "buechel",
    "name": "Fliegerhorst Büchel",
    "address": "56823 Büchel",
    "lat": 50.176131,
    "lng": 7.063645,
    "translationKey": "BUECHEL",
    "readMoreLink": "/events/abschlusskundgebung"
  }
]
